     2.11           OBSERVATION DATA    M (MIXED)           RINEX VERSION / TYPE
teqc  2015Nov6                          20191003 12:15:01UTCPGM / RUN BY / DATE
KLG1_WDIZMIRAN                                              MARKER NAME
KLG1                                                        MARKER NUMBER
                                                            OBSERVER / AGENCY
466852              LEICA GX1220GG      5.50/3.055          REC # / TYPE / VERS
                    LEIAX1202GG                             ANT # / TYPE
  3459534.0171  1291070.7222  5183163.5417                  APPROX POSITION XYZ
        0.0000        0.0000        0.0000                  ANTENNA: DELTA H/E/N
     1     1                                                WAVELENGTH FACT L1/2
     5    L1    L2    P1    P2    C1                        # / TYPES OF OBSERV
    30.0000                                                 INTERVAL
    18                                                      LEAP SECONDS
MSXP|IAx86-PII|bcc32 5.0|MSWin95->XP|486/DX+                COMMENT
SPIDER V3,1,0,3080                      2017 09 06 23:05    COMMENT
BIT 2 OF LLI FLAGS DATA COLLECTED UNDER A/S CONDITION       COMMENT
SNR is mapped to RINEX snr flag value [2-9]                 COMMENT
L1&L2:  = 25dBHz -> 1; 26-27dBHz -> 2; 28-31dBHz -> 3       COMMENT
       32-35dBHz -> 4; 36-38dBHz -> 5; 39-41dBHz -> 6       COMMENT
       42-44dBHz -> 7; 45-48dBHz -> 8; >=49dBHz -> 9        COMMENT
Forced Modulo Decimation to 30 seconds                      COMMENT
teqc edited: all GLONASS satellites excluded                COMMENT
teqc edited: all SBAS satellites excluded                   COMMENT
teqc edited: all Galileo satellites excluded                COMMENT
  2017     9     6     0     0    0.0000000     GPS         TIME OF FIRST OBS
                                                            END OF HEADER
 17  9  6  0  0  0.0000000  0  9G05G13G15G17G18G20G24G28G30
 127738338.509 8  99536373.53644                  24307798.040    24307797.967
 106408685.405 9  82915871.37848                  20248892.129    20248893.813
 112192536.731 9  87422759.01947                  21349526.861    21349527.942
 126459587.628 8  98539933.79545                  24064457.042    24064457.095
 128664015.804 6 100257671.30344                  24483945.528    24483947.268
 119493996.526 8  93112180.18045                  22738949.714    22738951.613
 127869876.661 6  99638870.65745                  24332830.998    24332828.976
 110511611.706 9  86112948.01847                  21029653.004    21029654.960
 116414369.132 9  90712509.82347                  22152911.356    22152910.162
 17  9  6  0  0 30.0000000  0  9G05G13G15G17G18G20G24G28G30
 127844685.460 8  99619241.30645                  24328035.013    24328035.142
 106413615.346 9  82919712.89748                  20249830.275    20249831.902
 112143100.019 9  87384236.90947                  21340119.284    21340120.377
 126364384.774 8  98465749.80245                  24046340.492    24046340.386
 128609273.266 6 100215014.76744                  24473528.138    24473530.157
 119556193.026 8  93160644.97145                  22750785.532    22750787.451
 127766613.702 6  99558406.05145                  24313180.643    24313178.664
 110541072.116 9  86135904.18547                  21035259.112    21035261.143
 116496481.129 8  90776493.18647                  22168536.861    22168535.436
 17  9  6  0  1  0.0000000  0  9G05G13G15G17G18G20G24G28G30
 127951135.552 8  99702189.41945                  24348291.835    24348291.945
 106419107.399 9  82923992.42148                  20250875.394    20250876.993
 112094160.551 9  87346102.26547                  21330806.475    21330807.471
 126269374.885 8  98391716.14945                  24028260.810    24028260.736
 128554946.714 7 100172682.39844                  24463190.614    24463192.259
 119618852.221 8  93209470.30645                  22762709.246    22762711.254
 127663444.100 6  99478014.20845                  24293547.905    24293545.999
 110570998.626 9  86159223.55947                  21040954.055    21040955.927
 116578828.760 9  90840660.16147                  22184207.207    22184205.580
 17  9  6  0  1 30.0000000  0  9G05G13G15G17G18G20G24G28G30
 128057681.398 8  99785212.13845                  24368566.801    24368566.975
 106425157.573 9  82928706.84648                  20252026.727    20252028.267
 112045714.933 9  87308352.43547                  21321587.474    21321588.553
 126174556.253 8  98317831.58145                  24010217.306    24010217.178
 128501033.189 6 100130671.90244                  24452931.550    24452932.803
 119681967.285 8  93258650.84944                  22774720.110    22774721.866
 127560364.637 6  99397692.59745                  24273932.517    24273930.683
 110601385.180 9  86182901.39347                  21046736.501    21046738.320
 116661406.344 9  90905006.32747                  22199921.121    22199919.566
 17  9  6  0  2  0.0000000  0  9G05G13G15G17G18G20G24G28G30
 128164322.861 8  99868309.39445                  24388860.068    24388860.046
 106431768.840 9  82933858.48548                  20253284.848    20253286.385
 111997767.960 9  87270991.16347                  21312463.486    21312464.493
 126079934.543 8  98244100.40445                  23992211.155    23992211.271
 128447537.073 7 100088986.57143                  24442750.727    24442753.253
 119745538.151 8  93308186.57145                  22786817.514    22786819.130
 127457378.023 6  99317443.27644                  24254334.958    24254332.988
 110632233.256 9  86206938.86047                  21052606.886    21052608.513
 116744215.211 9  90969532.70947                  22215679.153    22215677.605
 17  9  6  0  2 30.0000000  0  9G05G13G15G17G18G20G24G28G30
 128271056.283 8  99951478.29045                  24409170.876    24409170.664
 106438941.003 9  82939447.18748                  20254649.659    20254651.202
 111950320.387 9  87234019.03947                  21303434.553    21303435.485
 125985511.703 8  98170524.20245                  23974242.882    23974242.976
 128394459.268 6 100047627.25044                  24432650.495    24432652.989
 119809562.170 8  93358075.40044                  22799001.059    22799002.436
 127354485.413 6  99237267.24944                  24234754.970    24234753.098
 110663540.651 9  86231334.23347                  21058564.531    21058566.172
 116827253.619 8  91034237.95747                  22231480.805    22231479.247
 17  9  6  0  3  0.0000000  0  9G05G13G15G17G18G20G24G28G30
 128377880.440 8 100034717.90045                  24429498.732    24429498.756
 106446676.094 9  82945474.54148                  20256121.509    20256123.112
 111903375.855 9  87197438.88547                  21294501.238    21294502.231
 125891292.722 8  98097106.87945                  23956313.767    23956313.700
 128341803.164 6 100006596.53244                  24422630.123    24422632.319
 119874038.130 8  93408316.39945                  22811270.477    22811271.667
 127251689.491 6  99157166.57545                  24215193.522    24215191.351
 110695307.682 9  86256087.77747                  21064609.600    21064611.290
 116910522.012 9  91099122.41647                  22247326.268    22247324.743
 17  9  6  0  3 30.0000000  0  9G05G13G15G17G18G20G24G28G30
 128484789.311 8 100118023.51244                  24449842.806    24449842.998
 106454971.111 9  82951938.19148                  20257699.975    20257701.577
 111856932.549 9  87161249.29447                  21285663.362    21285664.358
 125797276.603 8  98023847.59945                  23938423.018    23938422.974
 128289566.788 6  99965892.87344                  24412689.889    24412691.799
 119938959.419 8  93458904.40145                  22823624.897    22823625.730
 127148987.973 6  99077139.43945                  24195650.322    24195647.795
 110727529.608 9  86281195.77447                  21070741.259    21070742.860
 116994015.702 9  91164182.42247                  22263214.403    22263213.052
 17  9  6  0  4  0.0000000  0  9G05G13G15G17G18G20G24G28G30
 128591783.408 7 100201395.54445                  24470202.833    24470202.959
 106463829.486 9  82958840.83548                  20259385.687    20259387.288
 111810995.482 9  87125454.17547                  21276921.897    21276922.819
 125703469.924 8  97950751.55945                  23920572.409    23920572.151
 128237755.294 6  99925520.29444                  24402830.928    24402832.423
 120004327.501 8  93509840.53945                  22836063.763    22836064.583
 127046385.288 6  98997189.36745                  24176125.736    24176123.010
 110760208.318 9  86306659.71147                  21076959.729    21076961.394
 117077736.947 9  91229419.74047                  22279146.175    22279144.658
 17  9  6  0  4 30.0000000  0  9G05G13G15G17G18G20G24G28G30
 128698855.851 8 100284828.62345                  24490578.287    24490578.298
 106473247.784 9  82966179.77948                  20261177.977    20261179.554
 111765562.616 9  87090051.95747                  21268276.253    21268277.202
 125609871.950 8  97877818.12245                  23902761.189    23902760.876
 128186366.332 6  99885476.91443                  24393051.445    24393053.239
 120070135.633 8  93561119.59345                  22848586.494    22848587.394
 126943878.948 6  98917314.29245                  24156619.076    24156616.637
 110793338.538 9  86332475.47547                  21083264.164    21083265.871
 117161680.525 8  91294830.31747                  22295119.877    22295118.613
 17  9  6  0  5  0.0000000  0  9G05G13G15G17G18G20G24G28G30
 128806006.436 8 100368322.59145                  24510968.428    24510968.560
 106483229.215 9  82973957.52448                  20263077.405    20263078.927
 111720638.366 9  87055046.05447                  21259727.469    21259728.390
 125516488.143 8  97805051.56545                  23884990.677    23884990.279
 128135404.077 7  99845766.07943                  24383353.371    24383355.581
 120136384.368 8  93612741.96245                  22861193.219    22861193.961
 126841472.970 6  98837517.49144                  24137131.661    24137129.267
 110826921.344 9  86358643.90047                  21089654.738    21089656.425
 117245848.128 9  91360415.43647                  22311136.585    22311135.140
 17  9  6  0  5 30.0000000  0  9G05G13G15G17G18G20G24G28G30
 128913231.099 8 100451874.27844                  24531372.466    24531372.581
 106493772.061 9  82982172.74748                  20265083.608    20265085.152
 111676222.213 9  87020436.06447                  21251275.356    21251276.241
 125423319.507 8  97732452.67445                  23867261.218    23867260.901
 128084868.372 6  99806387.57344                  24373736.982    24373739.259
 120203069.185 8  93664704.10945                  22873882.677    22873883.475
 126739166.400 6  98757798.13645                  24117663.479    24117660.903
 110860953.970 9  86385162.84347                  21096130.935    21096132.594
 117330236.849 9  91426172.87046                  22327195.215    22327193.797
 17  9  6  0  6  0.0000000  0  9G05G13G15G17G18G20G24G28G30
 129020529.026 8 100535483.06944                  24551790.525    24551790.626
 106504878.967 9  82990827.49048                  20267197.070    20267198.726
 111632318.561 9  86986225.43047                  21242920.671    21242921.702
 125330371.125 8  97660025.42645                  23849573.676    23849573.275
 128034763.155 6  99767344.60145                  24364203.182    24364204.339
 120270189.771 8  93717005.87745                  22886655.105    22886656.324
 126636962.992 6  98678159.12546                  24098214.209    24098212.181
 110895436.892 9  86412032.65047                  21102692.839    21102694.482
 117414847.734 8  91492103.39747                  22343296.153    22343294.660
 17  9  6  0  6 30.0000000  0  9G05G13G15G17G18G20G24G28G30
 129127894.727 7 100619144.67445                  24572221.475    24572221.776
 106516547.400 9  82999919.79248                  20269417.519    20269419.167
 111588926.202 9  86952413.20547                  21234663.380    21234664.428
 125237643.413 8  97587770.10545                  23831927.952    23831928.022
 127985087.202 6  99728636.07144                  24354749.744    24354751.177
 120337740.922 8  93769643.12546                  22899509.651    22899510.892
 126534861.287 6  98598599.39746                  24078784.979    24078782.962
 110930365.877 9  86439250.05747                  21109339.631    21109341.241
 117499676.859 8  91558204.01846                  22359438.524    22359437.088
 17  9  6  0  7  0.0000000  0  9G05G13G15G17G18G20G24G28G30
 129235326.991 7 100702858.12445                  24592665.231    24592665.469
 106528779.229 9  83009451.09248                  20271745.175    20271746.771
 111546048.276 9  86919001.83947                  21226503.960    21226505.060
 125145140.751 8  97515690.17845                  23814325.526    23814325.457
 127935843.859 6  99690264.63243                  24345378.688    24345380.445
 120405721.713 8  93822615.14245                  22912446.233    22912447.237
 126432863.988 6  98519120.99045                  24059375.540    24059373.801
 110965741.386 9  86466815.37947                  21116071.326    21116072.959
 117584724.685 8  91624475.03347                  22375622.621    22375621.294
 17  9  6  0  7 30.0000000  0  9G05G13G15G17G18G20G24G28G30
 129342821.973 7 100786620.45644                  24613120.756    24613121.024
 106541573.777 9  83019420.88748                  20274179.931    20274181.481
 111503685.694 9  86885992.03947                  21218442.584    21218443.741
 125052864.956 8  97443786.98745                  23796765.850    23796766.112
 127887033.441 6  99652230.53243                  24336089.815    24336092.363
 120474128.191 8  93875918.87945                  22925463.374    22925464.664
 126330971.124 6  98439724.01545                  24039985.973    24039984.180
 111001560.877 9  86494726.68547                  21122887.483    21122889.169
 117669989.240 8  91690914.91947                  22391847.851    22391846.480
 17  9  6  0  8  0.0000000  0  9G05G13G15G17G18G20G24G28G30
 129450378.740 7 100870430.92545                  24633587.984    24633588.164
 106554933.002 9  83029830.68248                  20276722.102    20276723.651
 111461841.789 9  86853386.39847                  21210479.938    21210481.122
 124960820.572 8  97372064.11445                  23779250.277    23779250.678
 127838659.532 6  99614536.57843                  24326884.719    24326887.138
 120542959.690 8  93929553.79545                  22938561.462    22938562.785
 126229185.938 6  98360410.91845                  24020616.882    24020615.026
 111037824.760 9  86522984.25547                  21129788.407    21129789.957
 117755470.998 8  91757524.08746                  22408114.383    22408113.177
 17  9  6  0  8 30.0000000  0  9G05G13G15G17G18G20G24G28G30
 129557993.444 8 100954286.52944                  24654066.394    24654066.585
 106568855.784 9  83040679.61948                  20279371.447    20279373.068
 111420516.897 9  86821185.18247                  21202616.096    21202617.286
 124869009.921 8  97300523.40645                  23761779.328    23761779.876
 127790722.264 6  99577182.85044                  24317762.718    24317764.926
 120612212.420 8  93983516.93845                  22951740.102    22951741.147
 126127508.506 6  98281181.77845                  24001268.080    24001266.567
 111074530.316 9  86551585.99547                  21136773.092    21136774.804
 117841167.691 8  91824300.72146                  22424421.957    22424420.686
 17  9  6  0  9  0.0000000  0  9G05G13G15G17G18G20G24G28G30
 129665663.260 7 101038185.11344                  24674555.041    24674555.506
 106583342.766 9  83051968.19648                  20282128.263    20282129.837
 111379712.611 9  86789389.64547                  21194851.369    21194852.542
 124777436.052 8  97229167.12645                  23744353.045    23744354.079
 127743223.405 6  99540170.76443                  24308724.057    24308726.080
 120681884.030 7  94037806.50245                  22964998.161    22964999.155
 126025939.816 6  98202037.38345                  23981939.936    23981938.682
 111111676.065 9  86580530.73747                  21143841.571    21143843.512
 117927078.255 8  91891243.98746                  22440770.354    22440768.810
 17  9  6  0  9 30.0000000  0  9G05G13G15G17G18G20G24G28G30
 129773383.593 8 101122123.01345                  24695053.411    24695053.754
 106598391.701 9  83063694.65148                  20284991.983    20284993.501
 111339428.490 9  86757999.42447                  21187185.603    21187186.747
 124686099.347 8  97157995.74145                  23726972.289    23726973.175
 127696162.385 6  99503499.80943                  24299768.635    24299770.684
 120751969.510 8  94092418.53445                  22978335.046    22978335.990
 125924479.390 6  98122977.33846                  23962632.864    23962631.369
 111149258.456 9  86609815.71547                  21150993.338    21150995.239
 118013199.399 8  91958351.36146                  22457158.615    22457157.279
 17  9  6  0 10  0.0000000  0  9G05G13G15G17G18G20G24G28G30
 129881155.484 7 101206101.13944                  24715561.674    24715562.170
 106614006.896 9  83075862.34948                  20287963.444    20287964.950
 111299670.268 9  86727018.99647                  21179619.827    21179621.003
 124595006.959 8  97087014.69145                  23709638.022    23709638.971
 127649544.754 6  99467174.40045                  24290897.882    24290899.406
 120822470.404 7  94147354.28645                  22991751.055    22991751.953
 125823132.195 6  98044005.50145                  23943347.356    23943345.758
 111187280.258 9  86639443.09647                  21158228.586    21158230.589
 118099534.254 8  92025625.26147                  22473587.542    22473586.202
 17  9  6  0 10 30.0000000  0  9G05G13G15G17G18G20G24G28G30
 129988975.669 7 101290116.84145                  24736079.441    24736079.615
 106630187.318 9  83088470.48748                  20291042.419    20291043.952
 111260438.587 9  86696448.84847                  21172154.277    21172155.492
 124504160.557 8  97016225.33845                  23692350.440    23692351.315
 127603370.854 6  99431194.75643                  24282111.629    24282112.650
 120893383.075 7  94202610.88245                  23005245.211    23005246.221
 125721898.738 6  97965122.34845                  23924083.116    23924081.333
 111225738.953 9  86669410.92147                  21165546.921    21165549.088
 118186080.530 8  92093063.89746                  22490056.517    22490055.464
 17  9  6  0 11  0.0000000  0  9G05G13G15G17G18G20G24G28G30
 130096835.523 7 101374163.45844                  24756604.430    24756604.556
 106646927.987 9  83101515.18248                  20294228.021    20294229.578
 111221729.670 9  86666286.06447                  21164788.202    21164789.442
 124413558.043 8  96945626.00745                  23675109.362    23675110.170
 127557636.892 6  99395557.90143                  24273407.455    24273409.535
 120964699.676 7  94258182.24645                  23018816.229    23018817.450
 125620775.055 6  97886324.70246                  23904840.003    23904838.177
 111264627.884 9  86699713.98747                  21172947.231    21172949.465
 118272831.887 8  92160662.35046                  22506564.826    22506563.853
 17  9  6  0 11 30.0000000  0  9G05G13G15G17G18G20G24G28G30
 130204739.183 7 101458244.24044                  24777137.625    24777138.118
 106664235.495 9  83115001.56648                  20297521.564    20297523.081
 111183551.504 9  86636536.84147                  21157523.176    21157524.408
 124323208.698 8  96875223.95645                  23657916.256    23657917.161
 127512350.645 6  99360269.86444                  24264789.802    24264791.967
 121036424.109 7  94314071.41645                  23032464.813    23032466.049
 125519768.732 6  97807618.52745                  23885619.128    23885617.313
 111303951.693 9  86730355.91947                  21180430.419    21180432.573
 118359793.561 8  92228424.65146                  22523113.034    22523112.133
 17  9  6  0 12  0.0000000  0  9G05G13G15G17G18G20G24G28G30
 130312679.086 8 101542353.24744                  24797678.003    24797678.518
 106682104.784 9  83128925.69848                  20300921.979    20300923.464
 111145900.789 9  86607198.63247                  21150358.555    21150359.721
 124233110.622 8  96805017.71046                  23640771.006    23640771.990
 127467509.138 6  99325328.43044                  24256257.273    24256259.263
 121108548.418 7  94370272.15445                  23046189.447    23046190.831
 125418875.613 6  97729000.52945                  23866419.451    23866417.836
 111343703.749 9  86761331.54547                  21187995.044    21187997.132
 118446959.596 8  92296346.24846                  22539700.166    22539699.362
 17  9  6  0 12 30.0000000  0  9G05G13G15G17G18G20G24G28G30
 130420653.937 7 101626489.49044                  24818224.925    24818225.437
 106700537.731 9  83143289.03048                  20304429.659    20304431.119
 111108780.119 9  86578273.43347                  21143294.710    21143295.934
 124143267.679 8  96735010.25845                  23623674.288    23623675.339
 127423114.622 7  99290735.33144                  24247809.384    24247811.482
 121181071.396 7  94426783.56045                  23059990.179    23059991.488
 125318099.328 6  97650473.58945                  23847242.485    23847240.699
 111383884.252 9  86792641.03447                  21195641.194    21195643.257
 118534330.401 8  92364427.37246                  22556326.333    22556325.639
 17  9  6  0 13  0.0000000  0  9G05G13G15G17G18G20G24G28G30
 130528664.026 7 101710653.16844                  24838778.891    24838779.049
 106719537.383 9  83158093.96748                  20308045.115    20308046.621
 111072194.591 9  86549765.23747                  21136332.710    21136333.981
 124053686.399 8  96665206.72545                  23606627.743    23606628.469
 127379172.074 7  99256494.40044                  24239447.750    24239449.564
 121253994.008 7  94483606.34845                  23073867.044    23073868.099
 125217443.976 6  97572040.86944                  23828087.979    23828086.331
 111424495.185 9  86824285.91647                  21203369.175    21203371.273
 118621908.096 8  92432669.71846                  22572991.781    22572991.073
 17  9  6  0 13 30.0000000  0  8G13G15G17G18G20G24G28G30
 106739099.592 9  83173337.25948                  20311767.660    20311769.197
 111036141.352 9  86521671.80147                  21129471.999    21129473.320
 123964365.960 8  96595606.42245                  23589630.554    23589631.337
 127335678.902 7  99222603.62744                  24231171.476    24231173.142
 121327309.302 7  94540735.13045                  23087818.736    23087819.661
 125116906.388 6  97493699.89245                  23808956.640    23808954.968
 111465530.759 9  86856261.68747                  21211178.099    21211180.101
 118709687.198 8  92501068.99346                  22589695.742    22589694.934
 17  9  6  0 14  0.0000000  0  8G13G15G17G18G20G24G28G30
 106759225.303 9  83189019.62748                  20315597.531    20315598.987
 111000622.843 9  86493995.05747                  21122713.162    21122714.360
 123875309.739 8  96526212.00045                  23572683.682    23572684.430
 127292637.285 7  99189064.70243                  24222981.004    24222982.815
 121401014.752 7  94598167.92045                  23101844.585    23101845.383
 125016489.509 6  97415452.99144                  23789847.917    23789846.372
 111506989.902 9  86888567.52147                  21219067.407    21219069.448
 118797667.547 8  92569625.10046                  22606437.989    22606437.157
 17  9  6  0 14 30.0000000  0  8G13G15G17G18G20G24G28G30
 106779913.998 9  83205140.68948                  20319534.504    20319535.950
 110965640.335 9  86466735.95447                  21116056.226    21116057.410
 123786520.404 8  96457025.52845                  23555787.608    23555788.269
 127250048.307 6  99155878.44344                  24214876.756    24214878.545
 121475107.931 7  94655902.85545                  23115943.687    23115944.834
 124916193.700 6  97337300.43245                  23770762.264    23770760.798
 111548871.589 9  86921202.60247                  21227037.113    21227039.226
 118885847.786 8  92638336.94046                  22623218.076    22623217.239
 17  9  6  0 15  0.0000000  0  8G13G15G17G18G20G24G28G30
 106801169.126 9  83221703.13548                  20323579.231    20323580.655
 110931198.592 9  86439898.23747                  21109502.204    21109503.341
 123698003.624 8  96388051.43846                  23538943.293    23538944.038
 127207916.815 6  99123048.73744                  24206859.346    24206860.802
 121549589.188 7  94713940.18744                  23130117.294    23130118.307
 124816023.244 6  97259245.58046                  23751700.281    23751698.785
 111591176.621 9  86954167.56747                  21235087.601    21235089.588
 118974230.174 8  92707206.32046                  22640036.682    22640035.771
 17  9  6  0 15 30.0000000  0  8G13G15G17G18G20G24G28G30
 106822986.190 9  83238703.45648                  20327730.898    20327732.298
 110897294.525 9  86413479.48447                  21103050.406    21103051.582
 123609758.639 8  96319289.16246                  23522151.294    23522151.564
 127166239.459 7  99090572.86043                  24198928.222    24198930.019
 121624451.770 8  94772274.64344                  23144363.011    23144364.123
 124715975.679 6  97181286.45845                  23732661.951    23732660.527
 111633899.784 9  86987458.34047                  21243217.486    21243219.453
 119062809.484 8  92776229.16946                  22656892.981    22656891.948
 17  9  6  0 16  0.0000000  0  8G13G15G17G18G20G24G28G30
 106845366.315 9  83256142.51748                  20331989.633    20331991.094
 110863930.495 9  86387481.53447                  21096701.456    21096702.612
 123521789.330 8  96250741.67745                  23505411.107    23505411.567
 127125019.259 6  99058453.22744                  24191084.272    24191086.314
 121699693.656 7  94830904.67545                  23158680.614    23158682.225
 124616052.737 6  97103424.45445                  23713647.155    23713645.824
 111677040.339 9  87021074.36047                  21251426.877    21251428.667
 119151585.149 8  92845404.99046                  22673786.308    22673785.384
 17  9  6  0 16 30.0000000  0  8G13G15G17G18G20G24G28G30
 106868308.682 9  83274019.70348                  20336355.425    20336356.917
 110831107.089 9  86361904.85947                  21090455.455    21090456.543
 123434097.251 8  96182410.22946                  23488723.709    23488724.248
 127084255.851 7  99026689.54044                  24183327.324    24183329.135
 121775311.205 7  94889827.38245                  23173070.743    23173071.826
 124516255.660 6  97025660.55345                  23694656.607    23694654.994
 111720595.760 9  87055013.65647                  21259715.375    21259716.976
 119240555.406 8  92914732.45046                  22690716.782    22690715.873
 17  9  6  0 17  0.0000000  0  8G13G15G17G18G20G24G28G30
 106891816.734 9  83292337.66348                  20340828.827    20340830.392
 110798829.666 9  86336753.61647                  21084313.234    21084314.366
 123346688.985 8  96114299.91145                  23472090.329    23472090.906
 127043954.229 7  98995285.63544                  24175657.956    24175659.967
 121851305.592 7  94949043.78845                  23187531.895    23187533.131
 124416588.752 6  96947998.05845                  23675690.854    23675689.000
 111764568.309 9  87089277.98247                  21268083.035    21268084.537
 119329722.982 8  92984213.67646                  22707684.807    22707683.809
 17  9  6  0 17 30.0000000  0  9G11G13G15G17G18G20G24G28G30
 129145523.44516 100632873.02353                  24575577.131    24575576.797
 106915887.665 9  83311094.23248                  20345409.434    20345410.914
 110767096.468 9  86312026.45347                  21078274.601    21078275.709
 123259564.708 8  96046410.91046                  23455511.012    23455511.767
 127004112.962 7  98964240.47144                  24168076.318    24168078.379
 121927670.875 7  95008549.17945                  23202063.605    23202065.008
 124317050.693 6  96870435.94046                  23656748.966    23656747.466
 111808952.926 9  87123863.40647                  21276529.172    21276530.577
 119419083.621 8  93053845.31546                  22724689.717    22724688.567
 17  9  6  0 18  0.0000000  0  9G11G13G15G17G18G20G24G28G30
 129105354.779 6 100601572.78943                  24567932.134    24567934.042
 106940525.354 9  83330292.44248                  20350097.772    20350099.293
 110735912.814 9  86287727.51347                  21072340.521    21072341.580
 123172731.233 8  95978748.50045                  23438987.267    23438987.811
 126964737.388 7  98933558.19044                  24160583.231    24160585.319
 122004408.506 7  95068344.74045                  23216666.658    23216668.098
 124217646.626 7  96792978.25146                  23637832.930    23637831.495
 111853752.527 9  87158772.17647                  21285054.189    21285055.640
 119508640.433 8  93123629.84546                  22741731.797    22741730.745
 17  9  6  0 18 30.0000000  0  9G11G13G15G17G18G20G24G28G30
 129065709.057 6 100570680.05643                  24560387.432    24560389.397
 106965722.308 9  83349926.42948                  20354892.569    20354894.126
 110705273.209 9  86263852.48247                  21066509.971    21066511.069
 123086184.460 8  95911309.50045                  23422517.997    23422518.425
 126925821.915 6  98903234.47344                  24153178.053    24153179.844
 122081508.491 7  95128422.57445                  23231338.264    23231339.137
 124118371.007 7  96715620.63745                  23618941.579    23618939.991
 111898958.354 9  87193997.50547                  21293656.506    21293657.993
 119598385.229 8  93193560.82546                  22758809.786    22758808.416
 17  9  6  0 19  0.0000000  0  9G11G13G15G17G18G20G24G28G30
 129026589.430 6 100540197.20944                  24552943.178    24552945.375
 106991479.154 9  83369996.69748                  20359793.835    20359795.484
 110675179.749 9  86240403.03247                  21060783.453    21060784.450
 122999927.829 8  95844096.58246                  23406104.054    23406104.250
 126887368.520 7  98873270.75943                  24145860.020    24145862.127
 122158968.923 7  95188781.37345                  23246078.277    23246079.623
 124019225.946 6  96638364.77146                  23600075.029    23600073.212
 111944569.850 9  87229538.93347                  21302336.116    21302337.578
 119688317.844 8  93263638.14646                  22775923.445    22775921.982
 17  9  6  0 19 30.0000000  0  9G11G13G15G17G18G20G24G28G30
 128988001.472 6 100510128.71042                  24545599.854    24545602.694
 107017799.733 9  83390506.24648                  20364802.461    20364804.106
 110645637.333 9  86217382.97847                  21055161.797    21055162.679
 122913968.496 8  95777115.29345                  23389746.363    23389746.733
 126849382.618 6  98843671.37344                  24138632.250    24138633.585
 122236791.227 7  95249422.08344                  23260887.389    23260888.525
 123920216.645 7  96561214.69545                  23581234.284    23581232.333
 111990589.004 9  87265398.01847                  21311093.187    21311094.750
 119778441.059 8  93333864.01646                  22793073.197    22793071.865
 17  9  6  0 20  0.0000000  0  9G11G13G15G17G18G20G24G28G30
 128949942.379 6 100480472.28743                  24538358.368    24538360.569
 107044678.710 9  83411450.90648                  20369917.337    20369919.000
 110616641.707 9  86194788.98147                  21049644.120    21049644.930
 122828304.112 8  95710363.86946                  23373444.946    23373445.289
 126811859.892 6  98814432.87444                  24131492.108    24131493.081
 122314966.999 7  95310338.24446                  23275763.814    23275764.421
 123821339.139 7  96484167.29646                  23562418.355    23562416.706
 112037009.434 9  87301569.78247                  21319926.777    21319928.324
 119868748.551 8  93404233.47446                  22810258.222    22810256.750
 17  9  6  0 20 30.0000000  0  9G11G13G15G17G18G20G24G28G30
 128912421.228 6 100451234.94843                  24531217.823    24531220.139
 107072123.088 9  83432836.13548                  20375139.806    20375141.491
 110588202.843 9  86172628.82947                  21044232.269    21044233.134
 122742944.754 8  95643850.11546                  23357201.554    23357202.063
 126774808.980 6  98785562.01044                  24124441.289    24124442.592
 122393500.751 7  95371533.35145                  23290708.513    23290709.017
 123722602.093 7  96407229.39346                  23543629.157    23543627.617
 112083836.615 9  87338058.49747                  21328837.725    21328839.169
 119959246.654 8  93474751.46046                  22827479.220    22827477.973
 17  9  6  0 21  0.0000000  0  9G11G13G15G17G18G20G24G28G30
 128875433.807 6 100422413.61844                  24524179.467    24524181.363
 107100126.792 9  83454657.20848                  20380468.712    20380470.401
 110560315.363 9  86150898.32547                  21038925.466    21038926.276
 122657886.904 8  95577571.29045                  23341015.741    23341016.276
 126738224.948 6  98757054.96144                  24117479.676    24117480.805
 122472383.702 7  95433000.53645                  23305719.175    23305719.622
 123624001.009 6  96330397.40746                  23524865.659    23524864.253
 112131062.743 9  87374858.07547                  21337824.504    21337825.972
 120049928.237 8  93545412.38346                  22844735.606    22844734.074
 17  9  6  0 21 30.0000000  0 10G11G13G15G17G18G19G20G24G28G30
 128838985.848 6 100394012.62845                  24517243.876    24517245.547
 107128692.670 9  83476916.33648                  20385904.565    20385906.241
 110532983.775 9  86129600.98247                  21033724.445    21033725.206
 122573136.668 8  95511532.17846                  23324888.040    23324888.938
 126702112.447 6  98728915.38944                  24110607.713    24110608.949
 129957565.04016 101265633.06555                  24730101.520    24730102.597
 122551616.504 7  95494740.34845                  23320796.698    23320797.242
 123525540.349 7  96253674.80345                  23506129.413    23506127.949
 112178689.739 9  87411970.02147                  21346887.635    21346889.159
 120140795.610 8  93616218.11746                  22862027.014    22862025.662
 17  9  6  0 22  0.0000000  0 10G11G13G15G17G18G19G20G24G28G30
 128803072.913 6 100366028.50544                  24510409.562    24510411.471
 107157814.351 9  83499608.55948                  20391446.138    20391447.871
 110506203.081 9  86108732.91047                  21028628.249    21028629.015
 122488691.585 8  95445730.85446                  23308818.685    23308819.602
 126666466.882 7  98701139.58844                  24103824.609    24103826.276
 129840007.845 7 101174030.09545                  24707731.070    24707733.367
 122631190.158 7  95556745.78544                  23335939.441    23335940.027
 123427215.494 6  96177058.08846                  23487418.966    23487417.226
 112226709.656 9  87449388.14347                  21356025.416    21356027.105
 120231841.430 8  93687162.88546                  22879352.450    22879351.171
 17  9  6  0 22 30.0000000  0 10G11G13G15G17G18G19G20G24G28G30
 128767705.253 6 100338469.32544                  24503679.108    24503681.331
 107187499.557 9  83522739.88747                  20397094.992    20397096.790
 110479982.634 9  86088301.39147                  21023638.549    21023639.454
 122404562.191 8  95380175.50245                  23292809.276    23292810.198
 126631297.242 7  98673734.66944                  24097131.567    24097134.102
 129722510.778 7 101082473.95845                  24685371.867    24685374.275
 122711109.831 7  95619020.78544                  23351147.151    23351147.753
 123329035.397 7  96100554.14945                  23468735.984    23468734.080
 112275129.429 9  87487117.83647                  21365239.408    21365241.141
 120323072.736 8  93758252.18246                  22896713.191    22896711.905
 17  9  6  0 23  0.0000000  0 10G11G13G15G17G18G19G20G24G28G30
 128732879.788 6 100311332.55944                  24497052.032    24497054.259
 107217743.687 9  83546306.73948                  20402850.265    20402852.098
 110454319.026 9  86068303.76847                  21018754.955    21018755.856
 122320746.472 8  95314864.59946                  23276859.626    23276860.353
 126596599.570 7  98646697.54944                  24090529.185    24090531.230
 129605071.815 7 100990963.12344                  24663023.910    24663026.164
 122791368.044 7  95681559.69345                  23366419.669    23366421.079
 123230997.272 7  96024160.82945                  23450079.856    23450077.866
 112323942.311 9  87525153.84847                  21374528.351    21374529.983
 120414483.943 8  93829481.67346                  22914108.251    22914106.903
 17  9  6  0 23 30.0000000  0 10G11G13G15G17G18G19G20G24G28G30
 128698598.675 6 100284620.00944                  24490528.372    24490530.905
 107248546.911 9  83570309.25348                  20408711.970    20408713.733
 110429213.410 9  86048740.95347                  21013977.562    21013978.404
 122237247.424 8  95249800.43545                  23260970.361    23260971.072
 126562375.409 7  98620029.37144                  24084016.299    24084019.005
 129487694.538 6 100899500.32445                  24640687.898    24640689.981
 122871962.405 6  95744360.40944                  23381756.795    23381757.325
 123133102.392 6  95947879.14045                  23431451.340    23431449.108
 112373147.043 9  87563495.19647                  21383891.638    21383893.368
 120506074.076 8  93900850.57446                  22931537.243    22931536.098
 17  9  6  0 24  0.0000000  0 10G11G13G15G17G18G19G20G24G28G30
 128664864.743 6 100258333.85544                  24484109.024    24484111.682
 107279908.923 9  83594747.19348                  20414679.949    20414681.738
 110404668.477 9  86029615.02747                  21009306.884    21009307.640
 122154068.996 8  95184986.08945                  23245141.883    23245142.756
 126528627.349 7  98593732.20044                  24077594.147    24077596.957
 129370383.019 6 100808088.75545                  24618364.328    24618366.067
 122952890.930 7  95807421.59044                  23397156.438    23397157.987
 123035353.391 7  95871711.13046                  23412849.968    23412848.091
 112422743.085 8  87602141.46547                  21393329.315    21393331.110
 120597843.353 8  93972359.09646                  22949000.240    22948999.431
 17  9  6  0 24 30.0000000  0 10G11G13G15G17G18G19G20G24G28G30
 128631679.959 6 100232475.58143                  24477794.147    24477797.030
 107311830.098 9  83619620.83948                  20420754.363    20420756.141
 110380685.416 9  86010926.92747                  21004743.075    21004743.792
 122071213.977 8  95120423.77946                  23229375.184    23229375.886
 126495356.568 7  98567806.89744                  24071263.099    24071265.511
 129253141.132 7 100716731.49444                  24596054.173    24596055.595
 123034151.183 7  95870741.25945                  23412619.893    23412621.317
 122937751.544 7  95795657.76846                  23394277.105    23394275.149
 112472728.752 9  87641091.33947                  21402841.340    21402843.090
 120689790.857 8  94044006.47446                  22966497.399    22966496.429
 17  9  6  0 25  0.0000000  0 10G11G13G15G17G18G19G20G24G28G30
 128599043.615 6 100207044.66643                  24471583.780    24471586.486
 107344308.178 9  83644928.44448                  20426934.662    20426936.526
 110357262.901 9  85992675.62047                  21000285.835    21000286.665
 121988683.125 8  95056114.07245                  23213670.043    23213670.627
 126462561.142 7  98542252.02744                  24065022.468    24065024.666
 129135969.626 7 100625429.03745                  24573757.181    24573758.914
 123115737.598 7  95934315.04445                  23428145.871    23428146.547
 122840296.085 7  95719718.47845                  23375731.657    23375730.105
 112523100.075 9  87680341.72247                  21412426.715    21412428.440
 120781913.012 8  94115789.93146                  22984027.652    22984026.663
 17  9  6  0 25 30.0000000  0 10G11G13G15G17G18G19G20G24G28G30
 128566959.523 6 100182044.06344                  24465478.644    24465481.235
 107377343.601 9  83670670.33248                  20433221.064    20433222.970
 110334403.790 9  85974863.31747                  20995935.805    20995936.715
 121906480.977 8  94992060.47946                  23198027.296    23198028.054
 126430244.468 7  98517070.22143                  24058872.814    24058875.258
 129018873.925 7 100534185.67545                  24551474.459    24551476.182
 123197649.196 7  95998142.26544                  23443732.886    23443734.192
 122742989.763 7  95643895.39146                  23357214.893    23357213.297
 112573857.417 9  87719892.89847                  21422085.616    21422087.241
 120874210.366 8  94187709.92246                  23001591.294    23001590.236
 17  9  6  0 26  0.0000000  0 10G11G13G15G17G18G19G20G24G28G30
 128535429.433 6 100157475.12544                  24459478.796    24459481.401
 107410936.588 9  83696846.69348                  20439613.575    20439615.509
 110312109.047 9  85957490.79147                  20991693.241    20991694.238
 121824610.243 8  94928265.11445                  23182447.915    23182448.613
 126398407.600 7  98492262.27543                  24052814.269    24052816.927
 128901856.307 7 100443003.15745                  24529206.505    24529208.625
 123279882.922 7  96062220.45244                  23459381.159    23459382.476
 122645833.844 7  95568189.51546                  23338726.729    23338725.105
 112624998.630 9  87759743.19047                  21431817.517    21431819.108
 120966681.915 8  94259765.64746                  23019187.855    23019186.980
 17  9  6  0 26 30.0000000  0 10G11G13G15G17G18G19G20G24G28G30
 128504453.636 6 100133338.17444                  24453583.688    24453586.963
 107445085.436 9  83723456.17848                  20446111.937    20446113.842
 110290378.697 9  85940558.04347                  20987558.152    20987559.131
 121743072.215 8  94864729.03445                  23166931.633    23166932.240
 126367050.051 7  98467827.83044                  24046847.380    24046849.629
 128784919.231 7 100351883.37345                  24506954.062    24506956.174
 123362434.755 7  96126546.52245                  23475090.677    23475091.675
 122548829.330 8  95492601.60446                  23320267.473    23320265.695
 112676520.764 9  87799890.30647                  21441621.952    21441623.414
 121059325.583 8  94331955.48645                  23036817.496    23036816.591
 17  9  6  0 27  0.0000000  0 10G11G13G15G17G18G19G20G24G28G30
 128474036.177 6 100109636.28344                  24447795.345    24447798.457
 107479791.391 9  83750499.79348                  20452716.302    20452718.178
 110269215.967 9  85924067.60847                  20983531.004    20983532.028
 121661871.826 8  94801456.01346                  23151479.700    23151480.320
 126336174.822 7  98443769.22444                  24040971.763    24040974.108
 128668068.055 7 100260830.54545                  24484718.360    24484719.956
 123445304.101 7  96191119.99544                  23490860.240    23490861.342
 122451978.872 8  95417133.72846                  23301837.478    23301835.808
 112728424.931 9  87840335.11447                  21451498.980    21451500.365
 121152142.442 8  94404280.26646                  23054480.205    23054478.921
 17  9  6  0 27 30.0000000  0 10G11G13G15G17G18G19G20G24G28G30
 128444175.770 6 100086368.41344                  24442113.727    24442116.181
 107515051.089 9  83777974.88048                  20459426.052    20459427.917
 110248618.677 9  85908017.76847                  20979611.431    20979612.476
 121581008.868 8  94738445.94645                  23136092.136    23136092.682
 126305780.009 7  98420084.95944                  24035187.564    24035190.018
 128551303.090 7 100169844.88345                  24462498.358    24462500.328
 123528484.834 7  96255936.14044                  23506689.073    23506690.050
 122355281.347 8  95341785.03246                  23283436.381    23283434.910
 112780706.133 9  87881073.72647                  21461447.750    21461449.207
 121245128.304 8  94476736.78046                  23072174.796    23072173.584
 17  9  6  0 28  0.0000000  0 10G11G13G15G17G18G19G20G24G28G30
 128414875.427 6 100063536.98644                  24436537.914    24436540.446
 107550865.902 9  83805882.52748                  20466241.453    20466243.231
 110228589.691 9  85892410.76248                  20975800.026    20975801.075
 121500488.136 8  94675702.54946                  23120769.557    23120770.263
 126275868.543 7  98396777.32444                  24029495.839    24029498.121
 128434629.414 7 100078930.35945                  24440296.263    24440298.119
 123611975.731 7  96320993.96644                  23522577.049    23522578.029
 122258739.365 8  95266557.56046                  23265065.125    23265063.535
 112833364.144 9  87922105.95047                  21471468.269    21471469.675
 121338283.785 8  94549325.43446                  23089901.885    23089900.465
 17  9  6  0 28 30.0000000  0 10G11G13G15G17G18G19G20G24G28G30
 128386136.570 6 100041143.01542                  24431068.467    24431071.462
 107587234.995 9  83834222.08348                  20473162.240    20473164.069
 110209129.483 9  85877246.96247                  20972096.947    20972097.944
 121420311.625 8  94613227.39146                  23105512.356    23105513.156
 126246440.762 7  98373846.60344                  24023896.479    24023898.046
 128318049.688 7  99988089.08045                  24418111.933    24418113.431
 123695773.830 7  96386291.13844                  23538523.293    23538524.152
 122162354.280 8  95191452.31946                  23246723.498    23246721.979
 112886397.075 9  87963430.32147                  21481560.125    21481561.477
 121431607.543 8  94622045.23345                  23107660.482    23107659.552
 17  9  6  0 29  0.0000000  0 10G11G13G15G17G18G19G20G24G28G30
 128357959.953 6 100019187.28044                  24425706.813    24425709.470
 107624156.957 9  83862992.44148                  20480188.262    20480190.020
 110190238.508 9  85862526.71348                  20968502.120    20968503.182
 121340481.546 8  94551022.15846                  23090321.332    23090322.009
 126217497.006 7  98351293.03444                  24018388.797    24018390.208
 128201566.702 7  99897323.15145                  24395945.783    24395947.402
 123779875.199 7  96451824.66744                  23554526.754    23554528.218
 122066126.605 8  95116469.73346                  23228411.878    23228410.390
 112939802.479 9  88005044.91847                  21491722.796    21491724.253
 121525097.766 8  94694894.72446                  23125451.117    23125450.103
 17  9  6  0 29 30.0000000  0 10G11G13G15G17G18G19G20G24G28G30
 128330347.072 6  99997670.73443                  24420452.413    24420454.693
 107661630.467 9  83892192.58048                  20487319.235    20487320.956
 110171917.346 9  85848250.47848                  20965015.740    20965016.829
 121260999.904 9  94489088.44546                  23075196.357    23075197.061
 126189037.844 7  98329117.06044                  24012972.900    24012974.776
 128085183.129 7  99806634.67745                  24373798.777    24373800.470
 123864276.682 7  96517592.02544                  23570588.502    23570589.286
 121970057.163 8  95041610.46246                  23210130.311    23210128.948
 112993578.127 9  88046948.03647                  21501955.935    21501957.424
 121618753.009 8  94767872.80546                  23143273.049    23143272.103
 17  9  6  0 30  0.0000000  0 10G11G13G15G17G18G19G20G24G28G30
 128303302.932 6  99976597.35244                  24415305.994    24415307.942
 107699658.899 9  83921825.12348                  20494555.820    20494557.466
 110154170.216 9  85834421.54248                  20961638.619    20961639.656
 121181873.094 9  94427431.22746                  23060139.203    23060139.812
 126161067.196 7  98307321.75044                  24007650.522    24007651.931
 127968905.820 7  99716029.03045                  24351672.021    24351673.396
 123948978.748 7  96583593.62344                  23586706.468    23586707.446
 121874150.616 8  94966878.08646                  23191879.704    23191878.592
 113047725.790 9  88089141.01547                  21512259.838    21512261.406
 121712575.574 8  94840981.27746                  23161127.060    23161126.062
 17  9  6  0 30 30.0000000  0 10G11G13G15G17G18G19G20G24G28G30
 128276823.313 6  99955963.89345                  24410266.726    24410269.157
 107738236.054 9  83951885.23548                  20501896.920    20501898.467
 110136992.584 9  85821036.38147                  20958369.841    20958370.885
 121103097.982 8  94366048.04446                  23045148.871    23045149.461
 126133580.452 6  98285903.49643                  24002419.607    24002421.170
 127852732.602 7  99625504.44645                  24329564.589    24329566.391
 124033972.613 7  96649822.60444                  23602880.201    23602881.598
 121778403.263 8  94892269.80346                  23173659.706    23173658.376
 113102238.296 9  88131618.30947                  21522633.204    21522634.815
 121806558.856 8  94914214.97446                  23179011.889    23179010.528
 17  9  6  0 31  0.0000000  0 10G11G13G15G17G18G19G20G24G28G30
 128250915.123 7  99935775.68543                  24405336.926    24405339.100
 107777366.465 9  83982376.47348                  20509343.146    20509344.689
 110120390.558 9  85808099.72648                  20955210.570    20955211.660
 121024683.083 9  94304945.56046                  23030226.830    23030227.340
 126106584.299 7  98264867.55644                  23997282.454    23997283.711
 127736671.942 7  99535067.59445                  24307479.055    24307480.734
 124119261.440 7  96716281.37844                  23619110.379    23619111.034
 121682821.508 8  94817790.54246                  23155471.148    23155469.647
 113157119.351 9  88174382.76947                  21533076.791    21533078.273
 121900707.256 8  94987577.31845                  23196927.394    23196926.254
 17  9  6  0 31 30.0000000  0 10G11G13G15G17G18G19G20G24G28G30
 128225575.851 6  99916030.78043                  24400514.553    24400517.500
 107817045.086 9  84013294.87248                  20516893.781    20516895.244
 110104361.108 9  85795609.23647                  20952160.257    20952161.393
 120946626.927 9  94244122.61246                  23015373.428    23015373.765
 126080075.165 7  98244211.09744                  23992237.722    23992239.161
 127620723.147 7  99444717.90345                  24285415.043    24285416.466
 124204837.618 7  96782964.08744                  23635395.070    23635395.866
 121587402.934 8  94743438.41246                  23137313.247    23137312.192
 113212362.933 9  88217429.72547                  21543589.328    21543590.789
 121995015.631 8  95061064.32546                  23214873.497    23214872.606
 17  9  6  0 32  0.0000000  0 10G11G13G15G17G18G19G20G24G28G30
 128200804.830 6  99896728.72844                  24395800.634    24395803.999
 107857269.303 9  84044638.41148                  20524548.208    20524549.634
 110088902.908 9  85783563.88148                  20949218.658    20949219.784
 120868929.826 9  94183579.44046                  23000587.709    23000588.564
 126054051.727 7  98223933.07744                  23987285.684    23987287.285
 127504887.321 7  99354456.22945                  24263372.243    24263373.695
 124290696.258 7  96849866.94244                  23651733.277    23651734.537
 121492146.295 8  94669212.50046                  23119186.605    23119185.456
 113267965.356 9  88260756.28747                  21554170.132    21554171.560
 122089480.794 8  95134673.50746                  23232849.901    23232849.002
 17  9  6  0 32 30.0000000  0 10G11G13G15G17G18G19G20G24G28G30
 128176609.551 7  99877875.24144                  24391196.428    24391200.213
 107898045.383 9  84076411.97848                  20532307.676    20532309.034
 110074022.875 9  85771969.05148                  20946387.044    20946388.160
 120791600.540 8  94123322.88046                  22985872.694    22985873.290
 126028521.622 7  98204039.49644                  23982427.498    23982429.151
 127389173.808 7  99264289.89045                  24241353.007    24241353.907
 124376840.654 7  96916992.37245                  23668126.291    23668126.604
 121397059.868 8  94595119.19446                  23101092.477    23101091.146
 113323930.890 9  88304365.80447                  21564819.991    21564821.477
 122184107.898 8  95208408.89645                  23250856.836    23250856.049
 17  9  6  0 33  0.0000000  0 10G11G13G15G17G18G19G20G24G28G30
 128152986.463 7  99859467.61244                  24386701.776    24386705.186
 107939366.902 9  84108610.55948                  20540170.960    20540172.216
 110059716.899 9  85760821.53848                  20943664.738    20943665.823
 120714636.506 9  94063350.92846                  22971226.594    22971227.379
 126003479.750 7  98184526.33644                  23977662.102    23977664.239
 127273580.987 7  99174217.59445                  24219356.425    24219357.301
 124463262.399 7  96984333.98345                  23684572.036    23684572.668
 121302139.185 8  94521155.06446                  23083029.574    23083028.246
 113380252.668 9  88348252.90547                  21575537.570    21575539.149
 122278890.536 8  95282265.44746                  23268893.459    23268892.638
 17  9  6  0 33 30.0000000  0 10G11G13G15G17G18G19G20G24G28G30
 128129941.349 6  99841510.37043                  24382316.167    24382319.674
 107981237.444 9  84141236.95547                  20548138.598    20548139.921
 110045990.064 9  85750125.29047                  20941052.621    20941053.687
 120638045.218 9  94003669.43446                  22956651.817    22956652.535
 125978931.095 7  98165397.53443                  23972990.706    23972992.964
 127158116.769 7  99084245.50045                  24197384.252    24197385.227
 124549963.361 6  97051893.13345                  23701070.320    23701070.873
 121207390.465 8  94447324.93546                  23064999.609    23064998.081
 113436933.600 9  88392419.87447                  21586323.694    21586325.136
 122373832.362 8  95356246.04746                  23286960.361    23286959.562
 17  9  6  0 34  0.0000000  0 10G11G13G15G17G18G19G20G24G28G30
 128107475.691 6  99824004.67944                  24378041.190    24378043.543
 108023657.165 9  84174291.26848                  20556210.860    20556212.090
 110032843.320 9  85739881.07648                  20938550.833    20938551.921
 120561829.154 8  93944280.33146                  22942148.461    22942149.065
 125954877.119 7  98146654.17844                  23968412.639    23968415.585
 127042784.463 7  98994376.21045                  24175436.834    24175437.945
 124636940.382 7  97119667.42744                  23717621.266    23717622.258
 121112815.300 8  94373629.99546                  23047002.407    23047001.144
 113493971.932 9  88436865.33746                  21597177.661    21597179.110
 122468932.420 8  95430349.93645                  23305057.394    23305056.490
 17  9  6  0 34 30.0000000  0 10G11G13G15G17G18G19G20G24G28G30
 128085586.100 6  99806947.87245                  24373876.545    24373877.515
 108066619.978 9  84207768.79548                  20564386.322    20564387.666
 110020272.770 9  85730085.84247                  20936158.767    20936159.813
 120485986.207 9  93885181.94846                  22927715.803    22927716.602
 125931313.344 7  98128292.78344                  23963928.515    23963931.601
 126927582.541 7  98904608.47445                  24153514.560    24153516.004
 124724185.860 7  97187650.86945                  23734224.180    23734224.342
 121018409.745 8  94300067.27046                  23029037.707    23029036.228
 113551361.057 9  88481584.14246                  21608098.473    21608099.874
 122564184.796 8  95504572.54445                  23323183.245    23323182.539
 17  9  6  0 35  0.0000000  0 10G11G13G15G17G18G19G20G24G28G30
 128064274.008 6  99790341.05744                  24369821.327    24369821.852
 108110125.297 9  84241669.04547                  20572665.102    20572666.453
 110008279.579 9  85720740.48847                  20933876.506    20933877.585
 120410519.703 9  93826376.91946                  22913355.014    22913355.697
 125908241.414 7  98110314.67445                  23959538.642    23959541.141
 126812514.901 7  98814945.41745                  24131617.948    24131619.372
 124811697.355 7  97255841.63644                  23750876.635    23750877.475
 120924176.250 8  94226638.57146                  23011105.532    23011104.219
 113609099.847 9  88526575.40646                  21619085.807    21619087.200
 122659588.939 8  95578913.42346                  23341338.314    23341337.499
 17  9  6  0 35 30.0000000  0 10G11G13G15G17G18G19G20G24G28G30
 128043544.055 6  99774187.84245                  24365877.203    24365876.615
 108154175.095 9  84275993.57047                  20581047.402    20581048.826
 109996867.117 9  85711847.66047                  20931704.733    20931705.860
 120335434.558 9  93767869.02746                  22899066.614    22899067.510
 125885664.501 7  98092722.25444                  23955242.538    23955244.981
 126697587.509 7  98725391.63245                  24109747.717    24109749.482
 124899474.489 7  97324239.39444                  23767579.890    23767580.938
 120830118.769 8  94153347.02746                  22993207.019    22993205.646
 113667189.148 9  88571839.80847                  21630139.676    21630141.268
 122755146.480 8  95653373.82446                  23359522.350    23359521.482
 17  9  6  0 36  0.0000000  0 10G11G13G15G17G18G19G20G24G28G30
 128023398.446 6  99758489.99244                  24362043.651    24362042.546
 108198770.014 9  84310742.85447                  20589533.593    20589535.005
 109986036.918 9  85703408.54247                  20929643.776    20929644.906
 120260734.494 9  93709661.19446                  22884851.735    22884852.531
 125863584.577 7  98075517.12944                  23951040.902    23951043.382
 126582804.713 7  98635950.53945                  24087905.281    24087906.994
 124987515.574 6  97392842.78444                  23784333.753    23784333.952
 120736239.641 8  94080194.48846                  22975342.429    22975341.072
 113725628.414 9  88617376.91047                  21641260.278    21641261.867
 122850857.466 8  95727953.75045                  23377735.621    23377734.719
