     2              OBSERVATION DATA    M                   RINEX VERSION / TYPE
LEICA GEO OFFICE 4.0                    15-10-8 16:08       PGM / RUN BY / DATE 
                                                            OBSERVER / AGENCY   
KLGD                                                        MARKER NAME         
mp_0925_12480212                                            MARKER NUMBER       
466852              LEICA GX1220GG      5.50                REC # / TYPE / VERS 
                    LEIAX1202GG                             ANT # / TYPE        
  3459523.6340  1291067.0809  5183147.3632                  APPROX POSITION XYZ 
       15.0000        0.0000        0.0000                  ANTENNA: DELTA H/E/N
L1PhaOff:   0.0644  L2PhaOff:   0.0640                      COMMENT             
     1     1                                                WAVELENGTH FACT L1/2
     6    C1    L1    D1    P2    L2    D2                  # / TYPES OF OBSERV 
  2008    10    12    00    00   00.000000                  TIME OF FIRST OBS   
  2008    10    12    23    59   30.000000                  TIME OF LAST OBS    
    14                                                      LEAP SECONDS        
    45                                                      # OF SATELLITES     
          C1    L1    D1    P2    L2    D2                  COMMENT             
   G 1     0     0     0     0     0     0                  PRN / # OF OBS      
   
    30                                                      INTERVAL            
                                                            END OF HEADER       
  8 10 12  0  0 30.        0   9G31G23G13G20G32G 4R10R11R17                     
  23360477.759   122760166.03245     -2423.918    23360477.026    95657264.03344
     -1888.766                                                                  
  20186435.679   106080460.19747       713.750    20186432.382    82660095.62246
       556.163                                                                  
  21271981.251   111785029.39945      2510.808    21271981.070    87105217.31444
      1956.473                                                                  
  20833045.572   109478406.11746     -1930.034    20833045.082    85307851.72645
     -1503.926                                                                  
  22538498.750   118440617.90245     -2597.858    22538499.136    92291389.32444
     -2024.304                                                                  
  21865376.163   114903327.36545      1504.590    21865376.197    89535055.63045
      1172.405                                                                  
  21861456.551   116985086.49005     -3081.397    21861459.225    90988423.12504
     -2396.648                                                                  
  20044971.253   107114262.46707      1042.792    20044974.309    83311115.01106
       811.063                                                                  
  20520641.719   119474308.13214     -3128.862    20520642.626    92924466.78315
     -2433.563                                                                  
  8 10 12  0  1  0.         0 10G17G31G23G13G20G32G 4R10R11R17
  24573571.069   129134987.43453     -3078.063    24573572.999   100624672.00054
     -2398.491                                                                  
  23374356.160   122833097.58045     -2437.922    23374355.545    95714093.81044
     -1899.684                                                                  
  20182404.172   106059274.48647       698.758    20182400.970    82643587.29145
       544.483                                                                  
  21257682.008   111709886.43446      2499.070    21257681.781    87046664.39543
      1947.323                                                                  
  20844100.043   109536498.16146     -1942.254    20844099.543    85353118.24046
     -1513.445                                                                  
  22553348.904   118518656.45845     -2604.727    22553349.061    92352198.56745
     -2029.655                                                                  
  21856838.245   114858459.95845      1486.828    21856838.174    89500094.01045
      1158.565                                                                  
  21878783.048   117077803.88605     -3099.480    21878785.729    91060536.67504
     -2410.707                                                                  
  20039194.970   107083396.26206      1015.249    20039198.042    83287107.98106
       789.641                                                                  
  20536807.323   119568429.84414     -3146.058    20536809.097    92997675.51714
     -2446.934                                                                  
  8 10 12  0  1 30.         0  9G31G23G13G20G32G 4R10R11R17  0  0  0            
  23388314.469   122906449.24145     -2452.309    23388313.255    95771250.98644
     -1910.886                                                                  
  20178463.799   106038567.96447       681.925    20178460.715    82627452.35346
       531.371                                                                  
  21243455.114   111635124.53445      2485.522    21243454.811    86988408.39444
      1936.773                                                                  
  20855228.645   109594979.10746     -1956.223    20855228.036    85398687.77545
     -1524.331                                                                  
  22568238.869   118596904.09645     -2611.612    22568239.469    92413170.70245
     -2035.026                                                                  
  21848402.401   114814129.51845      1468.534    21848402.246    89465550.79644
      1144.312                                                                  
  21896216.278   117171092.56005     -3119.288    21896219.264    91133094.53804
     -2426.113                                                                  
  20033575.122   107053366.18607       986.832    20033578.416    83263751.26706
       767.535                                                                  
  20553064.205   119663078.86314     -3163.465    20553065.163    93071288.58814
     -2460.477                                                                  
  8 10 12  0  2  0.         0  8G31G23G13G20G32G 4R10R11
  23402352.409   122980218.70545     -2466.344    23402351.281    95828733.63645
     -1921.836                                                                  
  20174614.719   106018340.94547       665.761    20174611.711    82611691.04746
       518.770                                                                  
  21229301.160   111560744.97646      2472.246    21229300.874    86930450.32945
      1926.422                                                                  
  20866431.226   109653848.31846     -1969.175    20866430.606    85444559.86646
     -1534.429                                                                  
  22583168.639   118675359.97245     -2619.016    22583168.998    92474305.12945
     -2040.797                                                                  
  21840069.070   114770337.53545      1450.223    21840068.955    89431427.17444
      1130.043                                                                  
  21913755.544   117264948.74605     -3138.637    21913758.740    91206093.76604
     -2441.163                                                                  
  20028111.977   107024173.42107       958.612    20028115.310    83241045.80606
       745.590 
  8 10 12  1 29 30.         0 12G25G 2G 7G23G13G20G 4G16G27R19R13R11            
  20914232.531   109905045.84446      1329.246    20914232.306    85640307.36844
      1035.773                                                                  
  22264296.511   116999670.25645      1114.159    22264293.723    91168563.08944
       868.171                                                                  
  21931550.364   115251086.66745      2962.953    21931549.899    89806035.88145
      2308.789                                                                  
  20845088.055   109541705.79246     -1878.319    20845085.046    85357170.45945
     -1463.629                                                                  
  20022115.091   105216943.73946      -123.401    20022113.851    81987230.20646
       -96.151                                                                  
  23769845.827   124911385.24544     -3611.437    23769844.883    97333537.69041
     -2814.090                                                                  
  22092903.670   116098984.64145     -1914.925    22092903.772    90466734.76643
     -1492.151                                                                  
  23396034.327   122946991.02744       295.977    23396032.902    95802845.30741
       230.632                                                                  
  22406599.225   117747474.53445      2763.129    22406599.311    91751271.74646
      2153.086                                                                  
  22774044.306   121825778.26304      -658.718    22774043.792    94753382.89704
      -512.340                                                                  
  20309656.048   118207825.31504      4231.984    20309660.097    91939432.89005
      3291.542                                                                  
  21377178.304   114233182.65405     -3326.305    21377182.400    88848054.11105
     -2587.129  
  8 10 12  1 29 30.         0 13G25G 2G 7G23G13G20G 4G16G27R19R13R11 
                                G31           
  20914232.531   109905045.84446      1329.246    20914232.306    85640307.36844
      1035.773                                                                  
  22264296.511   116999670.25645      1114.159    22264293.723    91168563.08944
       868.171                                                                  
  21931550.364   115251086.66745      2962.953    21931549.899    89806035.88145
      2308.789                                                                  
  20845088.055   109541705.79246     -1878.319    20845085.046    85357170.45945
     -1463.629                                                                  
  20022115.091   105216943.73946      -123.401    20022113.851    81987230.20646
       -96.151                                                                  
  23769845.827   124911385.24544     -3611.437    23769844.883    97333537.69041
     -2814.090                                                                  
  22092903.670   116098984.64145     -1914.925    22092903.772    90466734.76643
     -1492.151                                                                  
  23396034.327   122946991.02744       295.977    23396032.902    95802845.30741
       230.632                                                                  
  22406599.225   117747474.53445      2763.129    22406599.311    91751271.74646
      2153.086                                                                  
  22774044.306   121825778.26304      -658.718    22774043.792    94753382.89704
      -512.340                                                                  
  20309656.048   118207825.31504      4231.984    20309660.097    91939432.89005
      3291.542                                                                  
  21377178.304   114233182.65405     -3326.305    21377182.400    88848054.11105
     -2587.129    
  21377178.304   114233182.65405     -3326.305    21377182.400    88848054.11105
     -2587.129                                                                                                                                                                                            
  